[
  {
      "start": {
          "latitude": 48.8566,
          "longitude": 2.3522,
          "city": "Paris"
      },
      "end": {
          "latitude": 50.6292,
          "longitude": 3.0573,
          "city": "Lille"
      }
  },
  {
      "start": {
          "latitude": 45.8398,
          "longitude": 1.2611,
          "city": "Limoges"
      },
      "end": {
          "latitude": 44.8378,
          "longitude": -0.5792,
          "city": "Bordeaux"
      }
  },
  {
      "start": {
          "latitude": 45.7578,
          "longitude": 4.8357,
          "city": "Lyon"
      },
      "end": {
          "latitude": 47.7494,
          "longitude": 7.3395,
          "city": "Mulhouse"
      }
  },
  {
      "start": {
          "latitude": 45.7772,
          "longitude": 3.0819,
          "city": "Clermont-Ferrand"
      },
      "end": {
          "latitude": 51.0341,
          "longitude": 2.3775,
          "city": "Calais"
      }
  },
  {
      "start": {
          "latitude": 45.7770,
          "longitude": 3.0868,
          "city": "Marseille"
      },
      "end": {
          "latitude": 51.0370,
          "longitude": 2.3813,
          "city": "Nice"
      }
  },
  {
      "start": {
          "latitude": 43.2965,
          "longitude": 5.3698,
          "city": "Toulouse"
      },
      "end": {
          "latitude": 47.2184,
          "longitude": -1.5536,
          "city": "Nantes"
      }
  },
  {
      "start": {
          "latitude": 48.1173,
          "longitude": -1.6778,
          "city": "Rennes"
      },
      "end": {
          "latitude": 48.5734,
          "longitude": 7.7521,
          "city": "Strasbourg"
      }
  },
  {
      "start": {
          "latitude": 49.2583,
          "longitude": 4.0317,
          "city": "Reims"
      },
      "end": {
          "latitude": 45.1885,
          "longitude": 5.7245,
          "city": "Grenoble"
      }
  },
  {
      "start": {
          "latitude": 43.6110,
          "longitude": 3.8767,
          "city": "Montpellier"
      },
      "end": {
          "latitude": 47.3220,
          "longitude": 5.0415,
          "city": "Dijon"
      }
  },
  {
      "start": {
          "latitude": 48.3904,
          "longitude": -4.4861,
          "city": "Brest"
      },
      "end": {
          "latitude": 49.4431,
          "longitude": 1.0993,
          "city": "Rouen"
      }
  },
  {
    "start": {
      "latitude": 49.547,
      "longitude": 3.5333,
      "city": "Aisne"
    },
    "end": {
      "latitude": 48.4586,
      "longitude": 4.0865,
      "city": "Aube"
    }
  },
  {
    "start": {
      "latitude": 45.4322,
      "longitude": 4.3925,
      "city": "Loire"
    },
    "end": {
      "latitude": 47.3105,
      "longitude": 3.1248,
      "city": "Yonne"
    }
  },
  {
    "start": {
      "latitude": 48.0778,
      "longitude": 7.3586,
      "city": "Colmar"
    },
    "end": {
      "latitude": 43.2951,
      "longitude": -0.3708,
      "city": "Pau"
    }
  },
  {
    "start": {
      "latitude": 49.6888,
      "longitude": 4.5394,
      "city": "Ardennes"
    },
    "end": {
      "latitude": 45.0488,
      "longitude": 0.9167,
      "city": "Dordogne"
    }
  },
  {
    "start": {
      "latitude": 49.4094,
      "longitude": 2.8237,
      "city": "Oise"
    },
    "end": {
      "latitude": 48.0486,
      "longitude": 7.3697,
      "city": "Vosges"
    }
  }
]
