[
  {
    "latLng": { "lat": 48.5846, "lng": 7.7436 },
    "name": "Strasbourg",
    "endLatLng": { "lat": 48.5788, "lng": 7.7279 },
    "endCity": "Bas-Rhin"
  },
  {
    "latLng": { "lat": 48.2726, "lng": 7.4430 },
    "name": "Colmar",
    "endLatLng": { "lat": 48.0788, "lng": 7.3581 },
    "endCity": "Haut-Rhin"
  },
  {
    "latLng": { "lat": 48.9511, "lng": 7.6596 },
    "name": "Haguenau",
    "endLatLng": { "lat": 48.8924, "lng": 7.7732 },
    "endCity": "Bas-Rhin"
  },
  {
    "latLng": { "lat": 47.7508, "lng": 7.3354 },
    "name": "Mulhouse",
    "endLatLng": { "lat": 47.7613, "lng": 7.3360 },
    "endCity": "Haut-Rhin"
  },
  {
    "latLng": { "lat": 48.1101, "lng": 7.3561 },
    "name": "Sélestat",
    "endLatLng": { "lat": 48.1758, "lng": 7.5053 },
    "endCity": "Bas-Rhin"
  },
  {
    "latLng": { "lat": 48.0762, "lng": 7.3554 },
    "name": "Ribeauvillé",
    "endLatLng": { "lat": 48.1763, "lng": 7.5277 },
    "endCity": "Haut-Rhin"
  },
  {
    "latLng": { "lat": 48.2500, "lng": 7.3574 },
    "name": "Obernai",
    "endLatLng": { "lat": 48.4620, "lng": 7.4823 },
    "endCity": "Bas-Rhin"
  },
  {
    "latLng": { "lat": 47.9237, "lng": 7.3483 },
    "name": "Saint-Louis",
    "endLatLng": { "lat": 47.5959, "lng": 7.5560 },
    "endCity": "Haut-Rhin"
  },
  {
    "latLng": { "lat": 48.6177, "lng": 7.5024 },
    "name": "Molsheim",
    "endLatLng": { "lat": 48.5325, "lng": 7.4866 },
    "endCity": "Bas-Rhin"
  },
  {
    "latLng": { "lat": 48.2215, "lng": 7.4820 },
    "name": "Sélestat",
    "endLatLng": { "lat": 48.2289, "lng": 7.4432 },
    "endCity": "Haut-Rhin"
  },
  {
    "latLng": { "lat": 48.2491, "lng": 7.4048 },
    "name": "Obernai",
    "endLatLng": { "lat": 48.3667, "lng": 7.4122 },
    "endCity": "Bas-Rhin"
  },
  {
    "latLng": { "lat": 48.2926, "lng": 7.4246 },
    "name": "Colmar",
    "endLatLng": { "lat": 48.0816, "lng": 7.3492 },
    "endCity": "Haut-Rhin"
  },
  {
    "latLng": { "lat": 48.4393, "lng": 7.4248 },
    "name": "Sélestat",
    "endLatLng": { "lat": 48.4389, "lng": 7.5732 },
    "endCity": "Bas-Rhin"
  },
  {
    "latLng": { "lat": 47.7844, "lng": 7.3658 },
    "name": "Mulhouse",
    "endLatLng": { "lat": 47.8254, "lng": 7.3220 },
    "endCity": "Haut-Rhin"
  },
  {
    "latLng": { "lat": 48.3729, "lng": 7.4304 },
    "name": "Obernai",
    "endLatLng": { "lat": 48.5477, "lng": 7.5022 },
    "endCity": "Bas-Rhin"
  },
  {
    "latLng": { "lat": 48.0341, "lng": 7.3498 },
    "name": "Colmar",
    "endLatLng": { "lat": 48.1107, "lng": 7.3452 },
    "endCity": "Haut-Rhin"
  },
  {
    "latLng": { "lat": 48.8887, "lng": 7.4767 },
    "name": "Haguenau",
    "endLatLng": { "lat": 48.9274, "lng": 7.4936 },
    "endCity": "Bas-Rhin"
  },
  {
    "latLng": { "lat": 47.6057, "lng": 7.4090 },
    "name": "Mulhouse",
    "endLatLng": { "lat": 47.6864, "lng": 7.3357 },
    "endCity": "Haut-Rhin"
  },
  {
    "latLng": { "lat": 48.3826, "lng": 7.4677 },
    "name": "Sélestat",
    "endLatLng": { "lat": 48.4259, "lng": 7.4823 },
    "endCity": "Bas-Rhin"
  },
  {
    "latLng": { "lat": 47.6092, "lng": 7.3865 },
    "name": "Mulhouse",
    "endLatLng": { "lat": 47.6593, "lng": 7.3806 },
    "endCity": "Haut-Rhin"
  },
  {
    "latLng": { "lat": 48.3544, "lng": 7.4335 },
    "name": "Obernai",
    "endLatLng": { "lat": 48.4376, "lng": 7.4621 },
    "endCity": "Bas-Rhin"
  },
  {
    "latLng": { "lat": 48.1278, "lng": 7.3609 },
    "name": "Colmar",
    "endLatLng": { "lat": 48.1248, "lng": 7.4237 },
    "endCity": "Haut-Rhin"
  },
  {
    "latLng": { "lat": 48.4256, "lng": 7.5032 },
    "name": "Sélestat",
    "endLatLng": { "lat": 48.4645, "lng": 7.4439 },
    "endCity": "Bas-Rhin"
  },
  {
    "latLng": { "lat": 47.7378, "lng": 7.3377 },
    "name": "Mulhouse",
    "endLatLng": { "lat": 47.7247, "lng": 7.3199 },
    "endCity": "Haut-Rhin"
  },
  {
    "latLng": { "lat": 48.5713, "lng": 7.7299 },
    "name": "Strasbourg",
    "endLatLng": { "lat": 48.5598, "lng": 7.6544 },
    "endCity": "Bas-Rhin"
  },
  {
    "latLng": { "lat": 48.0404, "lng": 7.3586 },
    "name": "Colmar",
    "endLatLng": { "lat": 48.1143, "lng": 7.3209 },
    "endCity": "Haut-Rhin"
  },
  {
    "latLng": { "lat": 48.7172, "lng": 7.5016 },
    "name": "Haguenau",
    "endLatLng": { "lat": 48.7928, "lng": 7.5794 },
    "endCity": "Bas-Rhin"
  },
  {
    "latLng": { "lat": 47.6887, "lng": 7.3344 },
    "name": "Mulhouse",
    "endLatLng": { "lat": 47.6321, "lng": 7.2980 },
    "endCity": "Haut-Rhin"
  },
  {
    "latLng": { "lat": 48.5521, "lng": 7.7580 },
    "name": "Strasbourg",
    "endLatLng": { "lat": 48.6306, "lng": 7.7916 },
    "endCity": "Bas-Rhin"
  },
  {
    "latLng": { "lat": 48.3625, "lng": 7.4044 },
    "name": "Obernai",
    "endLatLng": { "lat": 48.3461, "lng": 7.3716 },
    "endCity": "Bas-Rhin"
  },
  {
    "latLng": { "lat": 48.8566, "lng": 2.3522 },
    "name": "Paris",
    "endLatLng": { "lat": 48.5833, "lng": -1.5167 },
    "endCity": "Ille-et-Vilaine"
  },
  {
    "latLng": { "lat": 45.7578, "lng": 4.8357 },
    "name": "Lyon",
    "endLatLng": { "lat": 48.5833, "lng": 7.7475 },
    "endCity": "Bas-Rhin"
  },
  {
    "latLng": { "lat": 43.7034, "lng": 7.2663 },
    "name": "Nice",
    "endLatLng": { "lat": 43.6785, "lng": 7.2066 },
    "endCity": "Alpes-Maritimes"
  },
  {
    "latLng": { "lat": 45.7640, "lng": 4.8357 },
    "name": "Lyon",
    "endLatLng": { "lat": 45.7500, "lng": 4.8500 },
    "endCity": "Rhône"
  },
  {
    "latLng": { "lat": 48.8566, "lng": 2.3522 },
    "name": "Paris",
    "endLatLng": { "lat": 48.8590, "lng": 2.3471 },
    "endCity": "Paris"
  },
  {
    "latLng": { "lat": 43.6047, "lng": 1.4442 },
    "name": "Toulouse",
    "endLatLng": { "lat": 43.6036, "lng": 1.4442 },
    "endCity": "Haute-Garonne"
  },
  {
    "latLng": { "lat": 48.1173, "lng": -1.6778 },
    "name": "Rennes",
    "endLatLng": { "lat": 48.1086, "lng": -1.6795 },
    "endCity": "Ille-et-Vilaine"
  },
  {
    "latLng": { "lat": 47.2184, "lng": -1.5536 },
    "name": "Nantes",
    "endLatLng": { "lat": 47.2184, "lng": -1.5536 },
    "endCity": "Loire-Atlantique"
  },
  {
    "latLng": { "lat": 47.3941, "lng": 0.6848 },
    "name": "Tours",
    "endLatLng": { "lat": 47.3941, "lng": 0.6848 },
    "endCity": "Indre-et-Loire"
  },
  {
    "latLng": { "lat": 48.8566, "lng": 2.3522 },
    "name": "Lille",
    "endLatLng": { "lat": 50.6292, "lng": 3.0573 },
    "endCity": "Nord"
  },
  {
    "latLng": { "lat": 43.2965, "lng": 5.3698 },
    "name": "Marseille",
    "endLatLng": { "lat": 43.2965, "lng": 5.3698 },
    "endCity": "Bouches-du-Rhône"
  },
  {
    "latLng": { "lat": 48.5839, "lng": 7.7455 },
    "name": "Haguenau",
    "endLatLng": { "lat": 48.8155, "lng": 7.7915 },
    "endCity": "Bas-Rhin"
  },
  {
    "latLng": { "lat": 47.7516, "lng": -1.9346 },
    "name": "Saint-Nazaire",
    "endLatLng": { "lat": 47.2836, "lng": -2.2199 },
    "endCity": "Loire-Atlantique"
  },
  {
    "latLng": { "lat": 43.9493, "lng": 4.8055 },
    "name": "Avignon",
    "endLatLng": { "lat": 43.9493, "lng": 4.8055 },
    "endCity": "Vaucluse"
  },
  {
    "latLng": { "lat": 43.2965, "lng": 5.3698 },
    "name": "Aix-en-Provence",
    "endLatLng": { "lat": 43.5297, "lng": 5.4474 },
    "endCity": "Bouches-du-Rhône"
  },
  {
    "latLng": { "lat": 47.3220, "lng": 5.0415 },
    "name": "Besançon",
    "endLatLng": { "lat": 47.2411, "lng": 6.0230 },
    "endCity": "Doubs"
  },
  {
    "latLng": { "lat": 43.6047, "lng": 1.4442 },
    "name": "Montauban",
    "endLatLng": { "lat": 44.0167, "lng": 1.3556 },
    "endCity": "Tarn-et-Garonne"
  },
  {
    "latLng": { "lat": 44.8378, "lng": -0.5792 },
    "name": "Bordeaux",
    "endLatLng": { "lat": 44.8378, "lng": -0.5792 },
    "endCity": "Gironde"
  },
  {
    "latLng": { "lat": 48.8566, "lng": 2.3522 },
    "name": "Versailles",
    "endLatLng": { "lat": 48.8049, "lng": 2.1204 },
    "endCity": "Yvelines"
  },
  {
    "latLng": { "lat": 47.2184, "lng": -1.5536 },
    "name": "Saint-Herblain",
    "endLatLng": { "lat": 47.2173, "lng": -1.6486 },
    "endCity": "Loire-Atlantique"
  },
  {
    "latLng": { "lat": 43.2965, "lng": 5.3698 },
    "name": "Toulon",
    "endLatLng": { "lat": 43.1242, "lng": 5.9280 },
    "endCity": "Var"
  },
  {
    "latLng": { "lat": 43.6108, "lng": 3.8767 },
    "name": "Montpellier",
    "endLatLng": { "lat": 43.6110, "lng": 3.8767 },
    "endCity": "Hérault"
  },
  {
    "latLng": { "lat": 45.7640, "lng": 4.8357 },
    "name": "Saint-Étienne",
    "endLatLng": { "lat": 45.4397, "lng": 4.3872 },
    "endCity": "Loire"
  },
  {
    "latLng": { "lat": 48.8534, "lng": 2.3488 },
    "name": "Fontainebleau",
    "endLatLng": { "lat": 48.4047, "lng": 2.7016 },
    "endCity": "Seine-et-Marne"
  },
  {
    "latLng": { "lat": 48.8566, "lng": 2.3522 },
    "name": "Évry",
    "endLatLng": { "lat": 48.6310, "lng": 2.4436 },
    "endCity": "Essonne"
  },
  {
    "latLng": { "lat": 49.1193, "lng": 6.1727 },
    "name": "Metz",
    "endLatLng": { "lat": 49.1193, "lng": 6.1727 },
    "endCity": "Moselle"
  },
  {
    "latLng": { "lat": 47.2184, "lng": -1.5536 },
    "name": "Saint-Nazaire",
    "endLatLng": { "lat": 47.2836, "lng": -2.2199 },
    "endCity": "Loire-Atlantique"
  },
  {
    "latLng": { "lat": 43.6108, "lng": 3.8767 },
    "name": "Nîmes",
    "endLatLng": { "lat": 43.8374, "lng": 4.3601 },
    "endCity": "Gard"
  },
  {
    "latLng": { "lat": 47.2184, "lng": -1.5536 },
    "name": "Angers",
    "endLatLng": { "lat": 47.4784, "lng": -0.5632 },
    "endCity": "Maine-et-Loire"
  },
  {
    "latLng": { "lat": 47.9029, "lng": 1.9093 },
    "name": "Orléans",
    "endLatLng": { "lat": 47.9029, "lng": 1.9093 },
    "endCity": "Loiret"
  },
  {
    "latLng": { "lat": 43.2965, "lng": 5.3698 },
    "name": "La Seyne-sur-Mer",
    "endLatLng": { "lat": 43.1046, "lng": 5.8893 },
    "endCity": "Var"
  },
  {
    "latLng": { "lat": 47.3220, "lng": 5.0415 },
    "name": "Dijon",
    "endLatLng": { "lat": 47.3220, "lng": 5.0415 },
    "endCity": "Côte-d'Or"
  },
  {
    "latLng": { "lat": 48.8566, "lng": 2.3522 },
    "name": "Créteil",
    "endLatLng": { "lat": 48.7833, "lng": 2.4667 },
    "endCity": "Val-de-Marne"
  },
  {
    "latLng": { "lat": 45.7640, "lng": 4.8357 },
    "name": "Villeurbanne",
    "endLatLng": { "lat": 45.7667, "lng": 4.8833 },
    "endCity": "Rhône"
  },
  {
    "latLng": { "lat": 48.8566, "lng": 2.3522 },
    "name": "Cergy",
    "endLatLng": { "lat": 49.0333, "lng": 2.0667 },
    "endCity": "Val-d'Oise"
  },
  {
    "latLng": { "lat": 44.8378, "lng": -0.5792 },
    "name": "Pessac",
    "endLatLng": { "lat": 44.8040, "lng": -0.6327 },
    "endCity": "Gironde"
  }
]